[
  {
    "nome": "1090 - ESCOLA ESTADUAL DR.COARACY NUNES",
    "endereco": "AV MENDONCA JUNIOR          1651         CENTRO",
    "zona": "2",
    "secoes": "834; 899; 900; 901; 902; 903; 904; 905; 906; 907; 908",
    "qtdSecoes": 11,
    "aptos": 3109,
    "lat": 0.0337387,
    "lng": -51.0649882
  },
  {
    "nome": "1139 - ESCOLA ESTADUAL PROFº JOSÉ FIRMO DO NASCIMENTO",
    "endereco": "AV CLODOVIO COELHO  - 145  - TREM",
    "zona": "2",
    "secoes": "77; 78; 79; 80; 81; 82; 276; 349; 410; 513; 814",
    "qtdSecoes": 11,
    "aptos": 2546,
    "lat": 0.0234223,
    "lng": -51.0624723
  },
  {
    "nome": "1147 - ESCOLA MUNICIPAL DE ENSINO FUNDAMENTAL AMAPA",
    "endereco": "RUA LEOPOLDO MACHADO, Nº 3055 - TREM",
    "zona": "2",
    "secoes": "83; 84; 85; 86; 87; 525; 579; 601; 647; 689",
    "qtdSecoes": 10,
    "aptos": 2784,
    "lat": 0.0233693,
    "lng": -51.0615422
  },
  {
    "nome": "1155 - ESCOLA ESTADUAL PROFº ZOLITO DE JESUS NUNES",
    "endereco": "RUA LEOPOLDO MACHADO                            160 - BEIROL",
    "zona": "2",
    "secoes": "88; 89; 90; 91; 92; 93; 94; 225; 284; 587; 783; 833",
    "qtdSecoes": 12,
    "aptos": 4367,
    "lat": 0.0180828,
    "lng": -51.0630121
  },
  {
    "nome": "1163 - ESCOLA MUNICIPAL DE ENSINO FUNDAMENTAL RORAIMA",
    "endereco": "RUA HILDEMAR MAIA ,   2549",
    "zona": "2",
    "secoes": "95; 96; 97; 98; 99; 100; 101; 102",
    "qtdSecoes": 8,
    "aptos": 1514,
    "lat": 0.0239132,
    "lng": -51.0709424
  },
  {
    "nome": "1171 - ESCOLA ESTADUAL PROFª SEBASTIANA LENIR DE ALMEIDA",
    "endereco": "AV DIOGENES SILVA         123        BURITIZAL",
    "zona": "2",
    "secoes": "103; 104; 105; 106; 107; 216; 450; 493; 544; 568; 600; 634; 656; 690; 719",
    "qtdSecoes": 15,
    "aptos": 4364,
    "lat": 0.0256685,
    "lng": -51.0727462
  },
  {
    "nome": "1295 - ESCOLA ESTADUAL JOSÉ DO PATROCINIO",
    "endereco": "RUA DO ESTALEIRO, 203, FAZENDINHA",
    "zona": "2",
    "secoes": "175; 176; 177; 287; 415; 455; 483; 506; 541; 588; 615; 810",
    "qtdSecoes": 12,
    "aptos": 3086,
    "lat": -0.053967,
    "lng": -51.1128241
  },
  {
    "nome": "1600 - ESCOLA ESTADUAL MÁRIO QUIRINO DA SILVA",
    "endereco": "RUA CLAUDOMIRO DE MORAIS                    SN",
    "zona": "2",
    "secoes": "228; 244; 269; 283; 310; 327; 347; 355; 542; 562; 591; 611; 769; 827",
    "qtdSecoes": 14,
    "aptos": 5391,
    "lat": 0.0156156,
    "lng": -51.0824975
  },
  {
    "nome": "1783 - ESCOLA ESTADUAL LAURO CHAVES",
    "endereco": "AV TEMBES       SN",
    "zona": "2",
    "secoes": "296; 348; 371; 398; 409; 424; 444; 461; 478; 502; 954; 955; 956; 957; 959",
    "qtdSecoes": 15,
    "aptos": 4075,
    "lat": 0.0134462,
    "lng": -51.0746006
  },
  {
    "nome": "1791 - ESCOLA ESTADUAL IRINEU DA GAMA PAES",
    "endereco": "AV RAIMUNDO CAXIAS DE SOUZA                      SN",
    "zona": "2",
    "secoes": "290; 368; 384; 399; 405; 414; 432; 536; 571; 597; 616; 635; 644; 658",
    "qtdSecoes": 14,
    "aptos": 5057,
    "lat": 0.0084896,
    "lng": -51.0930998
  },
  {
    "nome": "1848 - ESCOLA ESTADUAL PROFº ANTONIO CASTRO MONTEIRO",
    "endereco": "AV. DOM JOSE MARITANO         700",
    "zona": "2",
    "secoes": "390; 402; 406; 411; 425; 523; 548; 569; 598; 652; 696; 718",
    "qtdSecoes": 12,
    "aptos": 4075,
    "lat": -0.0017461,
    "lng": -51.0972317
  },
  {
    "nome": "1899 - UNIVERSIDADE FEDERAL DO AMAPA - UNIFAP",
    "endereco": "ROD. JOSMAR CHAVES PINTO, KM 02   JARDIM MARCO ZERO",
    "zona": "2",
    "secoes": "395; 429; 469; 512; 559; 595; 621; 660; 675; 695; 711; 740; 753; 762; 780; 832",
    "qtdSecoes": 16,
    "aptos": 6088,
    "lat": -0.0046007,
    "lng": -51.084902
  },
  {
    "nome": "1902 - ESCOLA ESTADUAL REINALDO MAURICIO GOLBERT DAMASCENO",
    "endereco": "AV 13 DE SETEMBRO      S/N",
    "zona": "2",
    "secoes": "396; 437; 491; 543; 602; 670; 706; 761; 788",
    "qtdSecoes": 9,
    "aptos": 3435,
    "lat": 0.0237668,
    "lng": -51.0862008
  },
  {
    "nome": "1961 - ESCOLA MUNICIPAL DE ENSINO INFANTIL  ANA LUIZA DE SOUZA MORAES",
    "endereco": "RUA CLAUDOMIRO DE MORAES, 802",
    "zona": "2",
    "secoes": "365; 378; 379; 380; 420",
    "qtdSecoes": 5,
    "aptos": 941,
    "lat": 0.0183284,
    "lng": -51.0796356
  },
  {
    "nome": "1970 - ESCOLA ESTADUAL PROFª ARACY MIRANDA DE MONT ALVERNE",
    "endereco": "AV. CARAMURU, 351",
    "zona": "2",
    "secoes": "117; 219; 343; 472; 662; 789",
    "qtdSecoes": 6,
    "aptos": 1880,
    "lat": 0.0204058,
    "lng": -51.0753194
  },
  {
    "nome": "1996 - ESCOLA ESTADUAL PROFº ROBERTO JOSE MORAIS DE CASTRO",
    "endereco": "RUA JOVINO DINOA, 152",
    "zona": "2",
    "secoes": "330; 351; 360; 375; 453; 492; 546",
    "qtdSecoes": 7,
    "aptos": 2216,
    "lat": 0.053791,
    "lng": -51.0595282
  },
  {
    "nome": "2020 - ESCOLA ESTADUAL PROFº ANTONIO MESSIAS GONÇALVES DA SILVA",
    "endereco": "AV. DOM JOSÉ MARITANO, 622",
    "zona": "2",
    "secoes": "433; 449; 467; 481; 498; 566; 596; 630; 657; 687; 708",
    "qtdSecoes": 11,
    "aptos": 3792,
    "lat": -0.0023999,
    "lng": -51.1006592
  },
  {
    "nome": "2046 - ESCOLA ESTADUAL PROFª BENIGNA MOREIRA DE SOUZA",
    "endereco": "RUA RAUL MONTEIRO VALDEZ - 1500",
    "zona": "2",
    "secoes": "442; 452; 463; 466; 476; 485; 494; 504; 508; 526; 549; 576",
    "qtdSecoes": 12,
    "aptos": 2992,
    "lat": 0.0120405,
    "lng": -51.0869984
  },
  {
    "nome": "2062 - ESCOLA MUNICIPAL DE ENSINO FUNDAMENTAL PROFESSORA NEUZONA",
    "endereco": "RUA AMADEU GAMA, 1742",
    "zona": "2",
    "secoes": "445; 486; 527; 558; 631",
    "qtdSecoes": 5,
    "aptos": 2019,
    "lat": -0.0133522,
    "lng": -51.089425
  },
  {
    "nome": "2070 - ESCOLA ESTADUAL PROFª MARGARIDA ROCHA DA COSTA",
    "endereco": "RODOVIA SALVADOR DINIZ, 1736",
    "zona": "2",
    "secoes": "459; 488; 534; 632; 800",
    "qtdSecoes": 5,
    "aptos": 1049,
    "lat": -0.048948,
    "lng": -51.1375985
  },
  {
    "nome": "2097 - ESCOLA ESTADUAL IVANHOE GONCALVES MARTINS",
    "endereco": "RAMAL DO POLO HORTIFRUTIGRANJEIRO",
    "zona": "2",
    "secoes": "475; 782",
    "qtdSecoes": 2,
    "aptos": 390,
    "lat": -0.0229246,
    "lng": -51.1109664
  },
  {
    "nome": "2119 - ESCOLA MUNICIPAL DE ENSINO FUNDAMENTAL WILSON MALCHER",
    "endereco": "RUA JOÃO DE CASTRO , S/N",
    "zona": "2",
    "secoes": "505; 540; 545; 551; 561; 584; 645; 646; 667; 691; 692; 709; 734; 744; 748",
    "qtdSecoes": 15,
    "aptos": 5035,
    "lat": 0.0061915,
    "lng": -51.0688535
  },
  {
    "nome": "2135 - ESCOLA ESTADUAL MARIA ANGÉLICA PEREIRA GÓES",
    "endereco": "AV. VICENTE BRANDÃO, 489",
    "zona": "2",
    "secoes": "818; 836",
    "qtdSecoes": 2,
    "aptos": 365,
    "lat": -0.0500012,
    "lng": -51.1185297
  },
  {
    "nome": "2143 - ESCOLA MUNICIPAL CACILDA FERREIRA VASCONCELOS",
    "endereco": "ROD. SALVADOR DINI, 192",
    "zona": "2",
    "secoes": "564; 636; 678; 700; 742",
    "qtdSecoes": 5,
    "aptos": 1526,
    "lat": -0.0477543,
    "lng": -51.1131147
  },
  {
    "nome": "2151 - ESCOLA ESTADUAL RAIMUNDA VIRGOLINO",
    "endereco": "RUA VILA DOS OLIVEIRAS, 837",
    "zona": "2",
    "secoes": "389; 403; 407; 423; 431; 446; 458; 465; 484; 495; 518; 563; 589; 603; 622; 837; 962",
    "qtdSecoes": 17,
    "aptos": 3997,
    "lat": 0.007386,
    "lng": -51.0643696
  },
  {
    "nome": "2216 - ESCOLA MUNICIPAL DE ENSINO FUNDAMENTAL PARAÍSO DAS ACÁCIAS",
    "endereco": "RUA SANTOS DUMONT - 3800",
    "zona": "2",
    "secoes": "625; 653; 672; 698; 714; 733; 757",
    "qtdSecoes": 7,
    "aptos": 1812,
    "lat": 0.0110574,
    "lng": -51.0745264
  },
  {
    "nome": "2224 - ESCOLA MUNICIPAL DE ENSINO FUNDAMENTAL EUNICE PICANÇO",
    "endereco": "RUA CLAUDOMIRO DE MORAES - 3015",
    "zona": "2",
    "secoes": "624; 659; 679; 705; 729; 798",
    "qtdSecoes": 6,
    "aptos": 1276,
    "lat": 0.0222021,
    "lng": -51.0784691
  },
  {
    "nome": "2267 - ESCOLA ESTADUAL PROFª MARIA DE NAZARÉ PEREIRA VASCONCELOS",
    "endereco": "RUA VILA DAS OLIVEIRAS - 372",
    "zona": "2",
    "secoes": "629; 638; 650; 661; 668; 677; 688; 702; 713; 728",
    "qtdSecoes": 10,
    "aptos": 3540,
    "lat": 0.0078117,
    "lng": -51.0649973
  },
  {
    "nome": "2313 - ESCOLA MUNICIPAL DE ENSINO FUNDAMENTAL ANTONIO BARBOSA",
    "endereco": "RUA NOVO HORIZONTE, 153",
    "zona": "2",
    "secoes": "69; 70; 226; 359; 418; 538; 727; 794",
    "qtdSecoes": 8,
    "aptos": 1259,
    "lat": 0.0150536,
    "lng": -51.0578284
  },
  {
    "nome": "2330 - ESCOLA ESTADUAL NELITA ROCHA BRITO DIAS",
    "endereco": "AV. NILO ALMEIDA, 01",
    "zona": "2",
    "secoes": "666; 674; 681; 693; 701; 724; 737; 751; 760; 770",
    "qtdSecoes": 10,
    "aptos": 2722,
    "lat": 0.0065611,
    "lng": -51.0914476
  },
  {
    "nome": "2356 - ESCOLA ESTADUAL GONÇALVES DIAS",
    "endereco": "RUA SANTOS DUMONT     BURITIZAL      N° 121",
    "zona": "2",
    "secoes": "113; 114; 115; 116; 419; 474; 528; 554; 605; 739; 771; 828",
    "qtdSecoes": 12,
    "aptos": 3739,
    "lat": 0.0202959,
    "lng": -51.0733797
  },
  {
    "nome": "2437 - ESCOLA MUNICIPAL DE ENSINO FUNDAMENTAL PROFª ANA MARIA DA SILVA RAMOS",
    "endereco": "AVENIDA INSPETOR AIMORÉ, 480",
    "zona": "2",
    "secoes": "434; 468; 487; 575; 608",
    "qtdSecoes": 5,
    "aptos": 1291,
    "lat": 0.0014028,
    "lng": -51.0880384
  },
  {
    "nome": "2453 - ESCOLA MUNICIPAL DE ENSINO FUNDAMENTAL CAETANO DIAS TOMAZ",
    "endereco": "RUA DO MATADOURO, 112",
    "zona": "2",
    "secoes": "565; 604; 654; 686; 712; 745; 777; 816",
    "qtdSecoes": 8,
    "aptos": 1997,
    "lat": -0.0462829,
    "lng": -51.1167653
  },
  {
    "nome": "2488 - ESCOLA MUNICIPAL DE ENSINO FUNDAMENTAL PROFª GUITA",
    "endereco": "AVENIDA ANTONIO COELHO DE CARVALHO, SN",
    "zona": "2",
    "secoes": "909",
    "qtdSecoes": 1,
    "aptos": 271,
    "lat": 0.0327893,
    "lng": -51.0626176
  },
  {
    "nome": "2518 - ESCOLA ESTADUAL PROFª JACINTA MARIA RODRIGUES DE CARVALHO",
    "endereco": "RUA DA MARINHA, S/N",
    "zona": "2",
    "secoes": "819; 823; 829; 961",
    "qtdSecoes": 4,
    "aptos": 1467,
    "lat": -0.0470407,
    "lng": -51.1048029
  },
  {
    "nome": "2640 - CENTRO DE EDUCAÇÃO DO AMAPÁ - CEPA",
    "endereco": "AV. MARIA QUITÉRIA,   316",
    "zona": "2",
    "secoes": "840; 841; 842; 843; 844",
    "qtdSecoes": 5,
    "aptos": 1731,
    "lat": 0.0283242,
    "lng": -51.0723443
  },
  {
    "nome": "2658 - ESCOLA ESTADUAL IRMA SANTINA RIOLI",
    "endereco": "RUA JOVINO DINOA, 2732",
    "zona": "2",
    "secoes": "845; 846; 847; 848; 849; 850; 851; 852; 853; 854; 855; 856",
    "qtdSecoes": 12,
    "aptos": 4197,
    "lat": 0.0277953,
    "lng": -51.0610911
  },
  {
    "nome": "2674 - ESCOLA ESTADUAL PROFª MARIA CARMELITA DO CARMO",
    "endereco": "RUA BARAO DE MAUA, 345",
    "zona": "2",
    "secoes": "868; 869; 870; 871; 872; 873; 874; 875; 876; 877; 878",
    "qtdSecoes": 11,
    "aptos": 3017,
    "lat": 0.0277001,
    "lng": -51.0753426
  },
  {
    "nome": "2682 - ESCOLA ESTADUAL SANTA INÊS",
    "endereco": "RUA BEIRA RIO                         SANTA INES",
    "zona": "2",
    "secoes": "879; 880; 881; 882; 883; 884; 885; 886; 887; 888; 889",
    "qtdSecoes": 11,
    "aptos": 3429,
    "lat": 0.0260541,
    "lng": -51.0543962
  },
  {
    "nome": "2690 - ESCOLA MUNICIPAL DE ENSINO FUNDAMENTAL HILDEMAR MAIA",
    "endereco": "AV CONEGO DOMINGOS MALTEZ                            SN",
    "zona": "2",
    "secoes": "890; 891; 892; 893; 894; 895; 896; 897; 898",
    "qtdSecoes": 9,
    "aptos": 1927,
    "lat": 0.027763,
    "lng": -51.0563128
  },
  {
    "nome": "2712 - ESCOLA ESTADUAL DOM ARISTIDES PIRÓVANO",
    "endereco": "AV HENRIQUE GALUCIO           1840       SANTA RITA",
    "zona": "2",
    "secoes": "910; 911; 912; 913; 914; 915; 916; 917",
    "qtdSecoes": 8,
    "aptos": 2718,
    "lat": 0.0319978,
    "lng": -51.067004
  },
  {
    "nome": "2720 - ESCOLA ESTADUAL DR.ALEXANDRE VAZ TAVARES",
    "endereco": "AV FELICIANO COELHO                                SN",
    "zona": "2",
    "secoes": "918; 919; 920; 921; 922; 923; 924; 925; 926; 927; 928; 929; 930; 931; 932",
    "qtdSecoes": 15,
    "aptos": 4905,
    "lat": 0.0294255,
    "lng": -51.0597796
  },
  {
    "nome": "2739 - ESCOLA ESTADUAL COELHO NETO",
    "endereco": "AV CLODOVIO COELHO                   124",
    "zona": "2",
    "secoes": "933; 934; 935; 936; 937; 938; 939; 940; 941; 942; 943",
    "qtdSecoes": 11,
    "aptos": 2455,
    "lat": 0.0243127,
    "lng": -51.0763811
  },
  {
    "nome": "2747 - ESCOLA ESTADUAL CECILIA PINTO",
    "endereco": "RUA PROF TOSTES              122         BURITIZAL",
    "zona": "2",
    "secoes": "944; 945; 946; 947; 948; 949; 950; 951; 952; 953; 958; 960",
    "qtdSecoes": 12,
    "aptos": 3557,
    "lat": 0.0140327,
    "lng": -51.0703004
  },
  {
    "nome": "1074 - ESCOLA ESTADUAL PROFESSORA RUTH DE ALMEIDA BEZERRA",
    "endereco": "RUA ADILSON JOSÉ PINTO PEREIRA 109",
    "zona": "10",
    "secoes": "60; 61; 62; 63; 64; 65; 66; 123; 308; 341; 391",
    "qtdSecoes": 11,
    "aptos": 3866,
    "lat": 0.0671909,
    "lng": -51.0575725
  },
  {
    "nome": "1090 - ESCOLA ESTADUAL JULIO GONCALVES DA COSTA",
    "endereco": "AV. CABRALZINHO, 1092",
    "zona": "10",
    "secoes": "68; 244; 412",
    "qtdSecoes": 3,
    "aptos": 687,
    "lat": 0.0271002,
    "lng": -51.1223946
  },
  {
    "nome": "1147 - ESCOLA ESTADUAL SEBASTIAO CORDEIRO DE SENA",
    "endereco": "ROD. AP 70, 1120,",
    "zona": "10",
    "secoes": "74; 373",
    "qtdSecoes": 2,
    "aptos": 495,
    "lat": 0.0096112,
    "lng": -51.0600472
  },
  {
    "nome": "1163 - ESCOLA QUILOMBOLA ESTADUAL JOSÉ BONIFÁCIO",
    "endereco": "RUA SANTO ANTÔNIO, 129",
    "zona": "10",
    "secoes": "76; 243; 368; 486",
    "qtdSecoes": 4,
    "aptos": 1075,
    "lat": 0.1346289,
    "lng": -51.0530402
  },
  {
    "nome": "1198 - ESCOLA MUNICIPAL JARDIM FELICIDADE",
    "endereco": "RUA VEREADOR JULIO MARIA PINTO PEREIRA 629",
    "zona": "10",
    "secoes": "80; 81; 82; 83; 84; 85; 115; 130; 298; 330; 357",
    "qtdSecoes": 11,
    "aptos": 3760,
    "lat": 0.0849633,
    "lng": -51.0625914
  },
  {
    "nome": "1210 - ESCOLA QUILOMBOLA ESTADUAL DANIEL DE CARVALHO",
    "endereco": "RODOVIA 070 - KM 46",
    "zona": "10",
    "secoes": "87; 338",
    "qtdSecoes": 2,
    "aptos": 694,
    "lat": -0.0445544,
    "lng": -51.1126753
  },
  {
    "nome": "1260 - ESCOLA ESTADUAL ANDRÉ NEVES ROSA",
    "endereco": "RUA PRINCIPAL, 326",
    "zona": "10",
    "secoes": "95",
    "qtdSecoes": 1,
    "aptos": 134,
    "lat": 0.070548,
    "lng": -51.0532167
  },
  {
    "nome": "1279 - ESCOLA ESTADUAL MARIA DO CARMO VIANA DOS ANJOS",
    "endereco": "RUA FRANCISCO ALVES CORRÊA, 30, JARDIM FELICIDADE II",
    "zona": "10",
    "secoes": "96; 97; 98; 99; 100; 101; 102; 103; 324; 347; 390",
    "qtdSecoes": 11,
    "aptos": 3899,
    "lat": 0.0964169,
    "lng": -51.0567767
  },
  {
    "nome": "1309 - ESCOLA ESTADUAL BRASIL NOVO",
    "endereco": "RUA FLORESTA, 15, BRASIL NOVO",
    "zona": "10",
    "secoes": "106; 125; 138; 158; 490",
    "qtdSecoes": 5,
    "aptos": 1604,
    "lat": 0.0885108,
    "lng": -51.0860409
  },
  {
    "nome": "1317 - ESCOLA ESTADUAL PROFESSORA ESTHER DA SILVA VIRGOLINO",
    "endereco": "RUA JOSE AURINO BORGES, 924",
    "zona": "10",
    "secoes": "107; 127; 134; 140; 144; 163; 174; 257; 302; 345; 399; 440",
    "qtdSecoes": 12,
    "aptos": 4021,
    "lat": 0.0724115,
    "lng": -51.0610209
  },
  {
    "nome": "1325 - ESCOLA ESTADUAL RIVANDA NAZARE DA SILVA GUIMARAES",
    "endereco": "RUA CÍCERO MARQUES DE SOUZA, 2874, NOVO HORIZONTE",
    "zona": "10",
    "secoes": "108; 118; 119; 126; 132; 139; 143; 162; 227; 284; 309",
    "qtdSecoes": 11,
    "aptos": 4220,
    "lat": 0.0966664,
    "lng": -51.049786
  },
  {
    "nome": "1368 - ESCOLA ESTADUAL SERAFINI COSTAPERARIA",
    "endereco": "RUA JOSEFA PELAES DE SILVA, 2694",
    "zona": "10",
    "secoes": "136; 164; 182; 228; 260; 295; 344",
    "qtdSecoes": 7,
    "aptos": 2728,
    "lat": 0.0915297,
    "lng": -51.0629837
  },
  {
    "nome": "1376 - ESCOLA ESTADUAL MARIA NEUZA DO CARMO",
    "endereco": "RUA MILTON DE SOUZA CORREA , 500",
    "zona": "10",
    "secoes": "135; 156; 171; 186; 205; 233; 258; 272; 300; 327; 382; 400",
    "qtdSecoes": 12,
    "aptos": 4634,
    "lat": 0.0836872,
    "lng": -51.0654859
  },
  {
    "nome": "1384 - ESCOLA MUNICIPAL QUILOMBOLA VELHO CHICO",
    "endereco": "BR 210 VILA DE CURRALINHO",
    "zona": "10",
    "secoes": "142; 414",
    "qtdSecoes": 2,
    "aptos": 434,
    "lat": 0.1236513,
    "lng": -51.1136017
  },
  {
    "nome": "1392 - ESCOLA ESTADUAL RAIMUNDA DOS PASSOS SANTOS",
    "endereco": "AV. LOURENCO ARAUJO DE SÁ, 2162, NOVO HORIZONTE",
    "zona": "10",
    "secoes": "154; 167; 177; 178; 185; 193; 199; 207; 213; 283; 372",
    "qtdSecoes": 11,
    "aptos": 4240,
    "lat": 0.0961204,
    "lng": -51.0497643
  },
  {
    "nome": "1406 - ESCOLA ESTADUAL PROFESSORA ODETE ALMEIDA LOPES",
    "endereco": "AV. RAIMUNDO REINALDO GUEDES FIGUEIRA, 151",
    "zona": "10",
    "secoes": "153; 170; 184; 220; 336; 353",
    "qtdSecoes": 6,
    "aptos": 1998,
    "lat": 0.0763017,
    "lng": -51.0571012
  },
  {
    "nome": "1414 - ESCOLA ESTADUAL PROFESSORA VERA LUCIA PINON NERY",
    "endereco": "AV. CARLOS LINS CORTES, 1405",
    "zona": "10",
    "secoes": "152; 173; 188; 218; 266; 287; 306; 316; 323; 337; 356; 480; 491",
    "qtdSecoes": 13,
    "aptos": 4828,
    "lat": 0.0704356,
    "lng": -51.0828217
  },
  {
    "nome": "1473 - ESCOLA ESTADUAL PROFESSORA ONEIDE PINTO LIMA",
    "endereco": "RUA DAS FLORES, 254",
    "zona": "10",
    "secoes": "194; 198; 262; 310; 333; 358",
    "qtdSecoes": 6,
    "aptos": 2231,
    "lat": 0.0836297,
    "lng": -51.0732236
  },
  {
    "nome": "1503 - ESCOLA MUNICIPAL PROFESSOR JOSÉ LEOVES DE LIMA TEIXEIRA",
    "endereco": "RUA RENASCIMENTO, 2041",
    "zona": "10",
    "secoes": "200; 211; 217; 240; 254; 268; 282; 292; 305; 437; 492",
    "qtdSecoes": 11,
    "aptos": 4003,
    "lat": 0.0731609,
    "lng": -51.0515009
  },
  {
    "nome": "1511 - ESCOLA ESTADUAL PROFESSORA RAIMUNDA DA SILVA VIRGOLINO",
    "endereco": "RUA FERNANDO ALVES DE OLIVEIRA, 3091",
    "zona": "10",
    "secoes": "216; 229; 234; 242; 250; 322; 381; 395; 418",
    "qtdSecoes": 9,
    "aptos": 2987,
    "lat": 0.0988605,
    "lng": -51.0468592
  },
  {
    "nome": "1546 - ESCOLA ESTADUAL PROFESSORA MARIA CAVALCANTE DE AZEVEDO PICANÇO",
    "endereco": "RUA CAJUEIRO, 543, BRASIL NOVO",
    "zona": "10",
    "secoes": "179; 191; 206; 223; 238; 255; 264; 270; 285; 289; 304; 312; 375",
    "qtdSecoes": 13,
    "aptos": 5016,
    "lat": 0.0940968,
    "lng": -51.0894013
  },
  {
    "nome": "1554 - ESCOLA ESTADUAL PROFESSORA MARIA JOSÉ SOUZA E SILVA",
    "endereco": "AV. FRANCISCO ALVES, 2356",
    "zona": "10",
    "secoes": "122; 239",
    "qtdSecoes": 2,
    "aptos": 687,
    "lat": 0.0969889,
    "lng": -51.0512333
  },
  {
    "nome": "1597 - ESCOLA ESTADUAL ANTONIO BRAULIO DE SOUZA",
    "endereco": "BR 156 - KM 30, MEL DA PEDREIRA",
    "zona": "10",
    "secoes": "279",
    "qtdSecoes": 1,
    "aptos": 144,
    "lat": 0.2808683,
    "lng": -51.0173433
  },
  {
    "nome": "1635 - ESCOLA ESTADUAL NOSSA SENHORA DE NAZARÉ",
    "endereco": "AV. AMAZONAS, N 432",
    "zona": "10",
    "secoes": "350; 384; 460",
    "qtdSecoes": 3,
    "aptos": 1072,
    "lat": 0.0905251,
    "lng": -51.1176406
  },
  {
    "nome": "1660 - ESCOLA ESTADUAL DE TEMPO INTEGRAL PROFESSOR. DARCY RIBEIRO",
    "endereco": "AV. JOSÉ FERREIRA CHUCRE, 2420",
    "zona": "10",
    "secoes": "301; 318; 331; 339; 361; 392",
    "qtdSecoes": 6,
    "aptos": 2200,
    "lat": 0.0875785,
    "lng": -51.0407129
  },
  {
    "nome": "1678 - ESCOLA ESTADUAL RISALVA FREITAS DO AMARAL",
    "endereco": "AV CECILIA VICENTE DA PAIXÃO, S/N",
    "zona": "10",
    "secoes": "313; 319; 326; 362; 380; 397; 427; 481",
    "qtdSecoes": 8,
    "aptos": 2930,
    "lat": 0.0712036,
    "lng": -51.0468022
  },
  {
    "nome": "1694 - ESCOLA MUNICIPAL LÚCIA NEVES DENIUR",
    "endereco": "ALAMEDA CIRIGUELA, N 1088",
    "zona": "10",
    "secoes": "315; 320; 325; 334; 370; 402",
    "qtdSecoes": 6,
    "aptos": 2287,
    "lat": 0.09883,
    "lng": -51.084877
  },
  {
    "nome": "1724 - ESCOLA ESTADUAL PROFESSOR ANTONIO MUNHOZ LOPES",
    "endereco": "CONJUNTO HABITACIONAL MACAPABA",
    "zona": "10",
    "secoes": "360; 369; 378; 388; 398; 403; 421; 425; 435; 455; 488",
    "qtdSecoes": 11,
    "aptos": 4178,
    "lat": 0.0863622,
    "lng": -51.0948366
  },
  {
    "nome": "1732 - ESCOLA MUNICIPAL SANDRA LOBATO FERREIRA",
    "endereco": "AV MARIA CAVALCANTE DE AZEVEDO PICANÇO, 505",
    "zona": "10",
    "secoes": "422; 453",
    "qtdSecoes": 2,
    "aptos": 463,
    "lat": 0.0682889,
    "lng": -51.0850332
  },
  {
    "nome": "1740 - ESCOLA ESTADUAL DOM JOSÉ MARITANO",
    "endereco": "AV. ALEXANDRE FERREIRA DA SILVA, 2204",
    "zona": "10",
    "secoes": "420; 426",
    "qtdSecoes": 2,
    "aptos": 478,
    "lat": 0.0930567,
    "lng": -51.0509927
  },
  {
    "nome": "1848 - ESCOLA ESTADUAL PROFESSOR. CARLOS ALBERTO VIANA MARQUES",
    "endereco": "CONJUNTO HABITACIONAL MIRACEMA - BLOCO 24",
    "zona": "10",
    "secoes": "443; 457; 465; 484",
    "qtdSecoes": 4,
    "aptos": 1120,
    "lat": 0.0576838,
    "lng": -51.0982036
  },
  {
    "nome": "1864 - ESCOLA MUNICIPAL SANDRA DO SOCORRO TOLOSA DA SILVA",
    "endereco": "AV. CID BROGES DE SANTANA, 2237",
    "zona": "10",
    "secoes": "445; 482",
    "qtdSecoes": 2,
    "aptos": 447,
    "lat": 0.0704871,
    "lng": -51.0823196
  },
  {
    "nome": "1872 - ESCOLA ESTADUAL SÃO LÁZARO",
    "endereco": "AV. JOSÉ ALVES PESSOA, 209",
    "zona": "10",
    "secoes": "446",
    "qtdSecoes": 1,
    "aptos": 125,
    "lat": 0.0702945,
    "lng": -51.0602899
  },
  {
    "nome": "1880 - ESCOLA ESTADUAL MARIA MÃE DE DEUS",
    "endereco": "RUA LARANJEIRAS, 458",
    "zona": "10",
    "secoes": "444; 483",
    "qtdSecoes": 2,
    "aptos": 588,
    "lat": 0.0944481,
    "lng": -51.0839153
  },
  {
    "nome": "1899 - ESCOLA MUNICIPAL PROFESSORA ELIANA FLEXA VILHENA",
    "endereco": "RUA CLODOALDO DA SILVA MATIAS, 1550",
    "zona": "10",
    "secoes": "447",
    "qtdSecoes": 1,
    "aptos": 186,
    "lat": 0.0853142,
    "lng": -51.0567223
  },
  {
    "nome": "1902 - ESCOLA MUNICIPAL MARIA CELES FERREIRA COUTINHO",
    "endereco": "AV. DOS IPÊS, 417",
    "zona": "10",
    "secoes": "448; 479",
    "qtdSecoes": 2,
    "aptos": 644,
    "lat": 0.101592,
    "lng": -51.0618863
  },
  {
    "nome": "1910 - ESCOLA QUILOMBOLA ESTADUAL NESTOR BARBOSA DA SILVA",
    "endereco": "RODOVIA ALCEU PAULO RAMOS, 2091",
    "zona": "10",
    "secoes": "450",
    "qtdSecoes": 1,
    "aptos": 258,
    "lat": 0.2433209,
    "lng": -50.9601647
  },
  {
    "nome": "1970 - ESCOLA ESTADUAL ARIRI",
    "endereco": "BR 210 - KM 33, NÚMERO 2148",
    "zona": "10",
    "secoes": "466",
    "qtdSecoes": 1,
    "aptos": 271,
    "lat": 0.297452,
    "lng": -51.1332299
  },
  {
    "nome": "1988 - ESCOLA ESTADUAL TESSALONICA",
    "endereco": "VILA TESSALONICA SN",
    "zona": "10",
    "secoes": "467; 468",
    "qtdSecoes": 2,
    "aptos": 376,
    "lat": 0.3599884,
    "lng": -51.1238752
  },
  {
    "nome": "2003 - ESCOLA QUILOMBOLA ESTADUAL GENERAL CARROMBERT PEREIRA DA COSTA",
    "endereco": "BR - 156 - KM 12, ILHA REDONDA",
    "zona": "10",
    "secoes": "471; 472",
    "qtdSecoes": 2,
    "aptos": 364,
    "lat": 0.1419324,
    "lng": -51.1477333
  },
  {
    "nome": "2020 - ESCOLA ESTADUAL SÃO PEDRO DO CARANÃ",
    "endereco": "RIO MATAPI, KM 40, BR 156",
    "zona": "10",
    "secoes": "476",
    "qtdSecoes": 1,
    "aptos": 133,
    "lat": 0.0285786,
    "lng": -51.0524693
  },
  {
    "nome": "2038 - ESCOLA MUNICIPAL CAMPINA GRANDE VALMITO MORAES BRAZÃO",
    "endereco": "ROD MACAPÁ - LARANJAL DO JARI, KM 21",
    "zona": "10",
    "secoes": "477; 478",
    "qtdSecoes": 2,
    "aptos": 184,
    "lat": 0.226075,
    "lng": -51.1305471
  },
  {
    "nome": "1031 - CENTRO DE EDUCAÇÃO PROFISSIONAL GRAZIELA REIS",
    "endereco": "AV DUQUE DE CAXIAS - 60",
    "zona": "14",
    "secoes": "6; 7; 8; 9; 10; 11; 12; 13; 14",
    "qtdSecoes": 9,
    "aptos": 2044,
    "lat": 0.0339501,
    "lng": -51.0570522
  },
  {
    "nome": "1040 - CENTRO EDUCACIONAL IRMÃ CARMELA BONASSI",
    "endereco": "AV. DEZOITO, 1792",
    "zona": "14",
    "secoes": "15; 16; 17; 18; 19",
    "qtdSecoes": 5,
    "aptos": 2198,
    "lat": 0.0460888,
    "lng": -51.1254055
  },
  {
    "nome": "1058 - E. E. PROFª DEUZUITE CAVALCANTE",
    "endereco": "AV. JOSÉ TUPINAMBÁ, 556, PERPÉTUO SOCORRO",
    "zona": "14",
    "secoes": "20; 21; 22; 23; 24; 25; 26; 27",
    "qtdSecoes": 8,
    "aptos": 3102,
    "lat": 0.0459675,
    "lng": -51.0464494
  },
  {
    "nome": "1066 - E. E. SANTUÁRIO PERPÉTUO SOCORRO",
    "endereco": "AV. JOSÉ TUPINAMBÁ  113,  PERPÉTUO SOCORRO",
    "zona": "14",
    "secoes": "28; 29; 30; 31; 32; 33",
    "qtdSecoes": 6,
    "aptos": 2082,
    "lat": 0.0459675,
    "lng": -51.0464494
  },
  {
    "nome": "1074 - E.E JOSE DE ALENCAR",
    "endereco": "RUA CANDIDO MENDES 269",
    "zona": "14",
    "secoes": "34; 35; 36; 37; 38; 39; 40; 41; 42",
    "qtdSecoes": 9,
    "aptos": 2912,
    "lat": 0.04367,
    "lng": -51.0497675
  },
  {
    "nome": "1082 - E.M.E.F. JOSE DUARTE DE AZEVEDO",
    "endereco": "RUA SAO PAULO, 670",
    "zona": "14",
    "secoes": "43; 44; 45; 46; 47; 48; 49; 50; 51; 52",
    "qtdSecoes": 10,
    "aptos": 3524,
    "lat": 0.0593119,
    "lng": -51.0531061
  },
  {
    "nome": "1090 - E.M.E.I.  MUNDO DA CRIANÇA",
    "endereco": "AV. PARAIBA - 201",
    "zona": "14",
    "secoes": "53; 54; 55; 56; 57; 58; 59",
    "qtdSecoes": 7,
    "aptos": 2200,
    "lat": 0.0576575,
    "lng": -51.054613
  },
  {
    "nome": "1104 - EEEF ARACARY CORREA ALVES",
    "endereco": "RUA RIO JAVARI, N 23",
    "zona": "14",
    "secoes": "60; 61; 62; 63; 64; 65",
    "qtdSecoes": 6,
    "aptos": 2033,
    "lat": 0.0439318,
    "lng": -51.0487739
  },
  {
    "nome": "1112 - EEEF AUGUSTO DOS ANJOS",
    "endereco": "AV. MARCILIO DIAS, S/N",
    "zona": "14",
    "secoes": "66; 67; 68; 69; 70",
    "qtdSecoes": 5,
    "aptos": 1938,
    "lat": 0.0507551,
    "lng": -51.0557226
  },
  {
    "nome": "1120 - EEEF GENERAL AZEVEDO COSTA",
    "endereco": "AV. JOSE ANTONIO SIQUEIRA 111",
    "zona": "14",
    "secoes": "71; 72; 73; 74; 75; 76; 77; 78; 79; 80; 81",
    "qtdSecoes": 11,
    "aptos": 3845,
    "lat": 0.0441922,
    "lng": -51.0552
  },
  {
    "nome": "1139 - EEEF MARIA IVONE DE MENEZES",
    "endereco": "RUA ANTONIO PELAES DE SOUZA 1320",
    "zona": "14",
    "secoes": "82; 83; 84; 85; 86; 87; 88; 89; 90; 91; 92",
    "qtdSecoes": 11,
    "aptos": 4236,
    "lat": 0.0539548,
    "lng": -51.0423989
  },
  {
    "nome": "1147 - EEEF MARIO DAVID ANDREAZZA",
    "endereco": "RAIMUNDO RAMOS DOS PASSOS 495",
    "zona": "14",
    "secoes": "93; 94; 95; 96; 97; 98; 99; 100; 101",
    "qtdSecoes": 9,
    "aptos": 3537,
    "lat": 0.0481509,
    "lng": -51.0469288
  },
  {
    "nome": "1155 - EMEF EUNICE DAS CHAGAS FERNANDES SOUZA",
    "endereco": "RUA GUANABARA - 372",
    "zona": "14",
    "secoes": "102; 103; 104; 105; 106; 107; 108; 109",
    "qtdSecoes": 8,
    "aptos": 2035,
    "lat": 0.0582657,
    "lng": -51.0550492
  },
  {
    "nome": "1163 - EMEF MAESTRO MIGUEL ALVES DA SILVA",
    "endereco": "RUA QUINTINO JUSTO DE ALMEIDA, 120",
    "zona": "14",
    "secoes": "110; 111; 112; 113; 114; 115",
    "qtdSecoes": 6,
    "aptos": 2076,
    "lat": 0.0509588,
    "lng": -51.0471613
  },
  {
    "nome": "1171 - EMEF RONDONIA",
    "endereco": "RUA JOVINO DINOA 741",
    "zona": "14",
    "secoes": "116; 117; 118; 119; 120; 121; 122",
    "qtdSecoes": 7,
    "aptos": 2441,
    "lat": 0.0453504,
    "lng": -51.0591163
  },
  {
    "nome": "1180 - EPG CASTRO ALVES",
    "endereco": "AV. PEDRO AMERICO, 114",
    "zona": "14",
    "secoes": "123; 124; 125; 126; 127",
    "qtdSecoes": 5,
    "aptos": 1743,
    "lat": 0.0523734,
    "lng": -51.0592473
  },
  {
    "nome": "1198 - EPG EDGAR LINO DA SILVA",
    "endereco": "AV. ANA NERY, 233",
    "zona": "14",
    "secoes": "128; 129; 130; 131; 132; 133; 134; 135",
    "qtdSecoes": 8,
    "aptos": 2683,
    "lat": 0.0494052,
    "lng": -51.0583895
  },
  {
    "nome": "1201 - EPG JESUS DE NAZARÉ",
    "endereco": "AV PRINCESA IZABEL, 255",
    "zona": "14",
    "secoes": "136; 137; 138; 139; 140; 141; 142; 143",
    "qtdSecoes": 8,
    "aptos": 2768,
    "lat": 0.0455849,
    "lng": -51.0641481
  },
  {
    "nome": "1210 - EPG PROF DEUSOLINA SALES FARIAS",
    "endereco": "RUA GOIAS, 107",
    "zona": "14",
    "secoes": "144; 145; 146; 147; 148; 149; 150; 151; 152; 153; 154; 155",
    "qtdSecoes": 12,
    "aptos": 4018,
    "lat": 0.0561838,
    "lng": -51.0582425
  },
  {
    "nome": "1252 - ESCOLA ESTADUAL ANTONIO CORDEIRO PONTES",
    "endereco": "AV FAB  , 264",
    "zona": "14",
    "secoes": "162; 163; 164; 165; 166; 167",
    "qtdSecoes": 6,
    "aptos": 1438,
    "lat": 0.040901,
    "lng": -51.052207
  },
  {
    "nome": "1309 - ESCOLA ESTADUAL GUANABARA",
    "endereco": "RUA ELIEZER LEVI, 1601",
    "zona": "14",
    "secoes": "195; 196; 197; 198; 199; 200; 201",
    "qtdSecoes": 7,
    "aptos": 1516,
    "lat": 0.0375141,
    "lng": -51.0559952
  },
  {
    "nome": "1325 - ESCOLA ESTADUAL  JOSÉ DE ANCHIETA",
    "endereco": "AV CORA DE CARVALHO, SN",
    "zona": "14",
    "secoes": "214; 215; 216; 217; 218; 219; 220; 221; 222; 223; 224; 225",
    "qtdSecoes": 12,
    "aptos": 3468,
    "lat": 0.0358784,
    "lng": -51.068799
  },
  {
    "nome": "1350 - ESCOLA ESTADUAL PREDICANDA CARNEIRO AMORIM LOPES",
    "endereco": "RUA RIO GRANDE DO SUL                     131",
    "zona": "14",
    "secoes": "246; 247; 248; 249; 250; 251; 252; 253",
    "qtdSecoes": 8,
    "aptos": 2893,
    "lat": 0.0384355,
    "lng": -51.0810664
  },
  {
    "nome": "1368 - ESCOLA ESTADUAL PROF. NILTON BALIEIRO MACHADO",
    "endereco": "DECIMA QUINTA AVENIDA, S/N (ESQUINA COM A QUINTA RUA)",
    "zona": "14",
    "secoes": "254; 255; 256; 257; 258; 259; 260; 261; 262; 263; 264; 265; 439; 440",
    "qtdSecoes": 14,
    "aptos": 5307,
    "lat": 0.0441931,
    "lng": -51.1285787
  },
  {
    "nome": "1384 - ESCOLA ESTADUAL PROF.GABRIEL ALMEIDA CAFÉ",
    "endereco": "AV FAB, 091",
    "zona": "14",
    "secoes": "269; 270; 271; 272; 273; 274; 275; 276; 277; 278; 279; 280",
    "qtdSecoes": 12,
    "aptos": 2909,
    "lat": 0.0405213,
    "lng": -51.0613145
  },
  {
    "nome": "1406 - ESCOLA ESTADUAL PROFº. LUCIMAR AMORAS DEL CASTILLO",
    "endereco": "AV CORA DE CARVALHO, SN",
    "zona": "14",
    "secoes": "292; 293",
    "qtdSecoes": 2,
    "aptos": 544,
    "lat": 0.0367613,
    "lng": -51.0750956
  },
  {
    "nome": "1449 - ESCOLA ESTADUAL TIRADENTES",
    "endereco": "RUA SANTOS DUMONT         128      SANTA RITA",
    "zona": "14",
    "secoes": "307; 308; 309; 310; 311; 312; 313; 314; 315; 316; 317; 318; 319",
    "qtdSecoes": 13,
    "aptos": 4062,
    "lat": 0.042191,
    "lng": -51.0731731
  },
  {
    "nome": "1465 - ESCOLA MUNICIPAL DE ENSINO FUNDAMENTAL ARACY NASCIMENTO",
    "endereco": "RUA MARCELO CANDIA                  615",
    "zona": "14",
    "secoes": "322; 323; 324; 325; 326; 327; 328",
    "qtdSecoes": 7,
    "aptos": 1509,
    "lat": 0.0396818,
    "lng": -51.0739994
  },
  {
    "nome": "1473 - ESCOLA MUNICIPAL DE ENSINO FUNDAMENTAL GOIAS",
    "endereco": "RUA SAO FRANCISCO DE ASSIS N 62",
    "zona": "14",
    "secoes": "329; 330; 331; 332; 333",
    "qtdSecoes": 5,
    "aptos": 1590,
    "lat": 0.0200316,
    "lng": -51.1727673
  },
  {
    "nome": "1490 - ESCOLA MUNICIPAL DE ENSINO FUNDAMENTAL RAIMUNDA DE LIMA GUEDES",
    "endereco": "RUA 07 - N 194",
    "zona": "14",
    "secoes": "343; 344; 345; 346; 347; 348; 349; 350; 351",
    "qtdSecoes": 9,
    "aptos": 2432,
    "lat": 0.0401529,
    "lng": -51.0569588
  },
  {
    "nome": "1538 - SEST/SENAT",
    "endereco": "RODOVIA DUCA SERRA",
    "zona": "14",
    "secoes": "369; 370",
    "qtdSecoes": 2,
    "aptos": 754,
    "lat": 0.0326851,
    "lng": -51.1188591
  },
  {
    "nome": "1546 - UNIVERSIDADE DO ESTADO DO AMAPÁ - UEAP",
    "endereco": "AV PRESIDENTE VARGAS,650",
    "zona": "14",
    "secoes": "371; 372; 373; 374; 375; 376; 377; 378; 379; 380; 381; 382; 383",
    "qtdSecoes": 13,
    "aptos": 2562,
    "lat": 0.0384101,
    "lng": -51.0556199
  },
  {
    "nome": "1643 - ESCOLA MUNICIPAL DE EDUCAÇÃO INFANTIL LUZIA COSTA DA SILVA",
    "endereco": "RUA SÃO FRANCISCO DE ASSIS, 1430",
    "zona": "14",
    "secoes": "438",
    "qtdSecoes": 1,
    "aptos": 26,
    "lat": 0.0219198,
    "lng": -51.1731422
  }
]